,City,Cloudiness,Country,Date,Humidity,Lat,Lng,Max Temp,Wind Speed
0,Rikitea,100,PF,1567366752,88,-23.12,-134.97,71.72,7.18
1,Bathsheba,40,BB,1567366753,66,13.22,-59.52,87.8,11.41
2,Kapaa,75,US,1567366754,66,22.08,-159.32,87.8,11.41
3,Katsuura,40,JP,1567366756,94,33.93,134.5,73.99,10.29
4,New Norfolk,20,AU,1567366757,81,-42.78,147.06,46.4,11.41
5,Busselton,100,AU,1567366758,52,-33.64,115.35,55.99,33.46
6,Port Alfred,0,ZA,1567366760,77,-33.59,26.89,63.0,5.99
7,Butaritari,45,KI,1567366761,76,3.07,172.79,84.32,18.59
8,Kodiak,40,US,1567366762,69,39.95,-94.76,79.0,3.36
9,Ushuaia,75,AR,1567366763,86,-54.81,-68.31,33.8,21.92
10,Rincon de La Victoria,0,BO,1567366765,34,-21.52,-64.81,66.2,11.41
11,Margate,20,AU,1567366766,81,-43.03,147.26,46.4,11.41
12,Vaini,100,IN,1567366767,94,15.34,74.49,74.06,1.83
13,Hilo,20,US,1567366768,62,19.71,-155.08,87.01,16.89
14,Victoria,75,BN,1567366770,83,5.28,115.24,82.4,2.24
15,Tura,100,RU,1567366771,86,64.27,100.22,52.1,0.09
16,Puerto Ayora,40,EC,1567366772,65,-0.74,-90.35,78.8,20.8
17,Castro,40,CL,1567366773,61,-42.48,-73.76,50.0,21.92
18,Mataura,69,NZ,1567366775,84,-46.19,168.86,43.0,4.0
19,Baiyin,0,CN,1567366776,93,36.55,104.13,50.0,6.71
20,Mar del Plata,80,AR,1567366777,55,-46.43,-67.52,39.5,30.0
21,Cape Town,20,ZA,1567366507,82,-33.93,18.42,59.0,4.7
22,Urdoma,0,RU,1567366779,92,61.74,48.55,42.02,1.52
23,Berlevag,20,NO,1567366781,72,70.86,29.09,62.6,8.05
24,Kruisfontein,10,ZA,1567366782,92,-34.0,24.73,52.82,10.25
25,Suvorovo,0,BG,1567366783,68,43.33,27.59,71.6,2.24
26,Bambanglipuro,100,ID,1567366784,83,-7.95,110.28,75.14,11.12
27,Faanui,97,PF,1567366786,79,-16.48,-151.75,74.96,15.23
28,Plettenberg Bay,97,ZA,1567366547,82,-34.05,23.37,57.32,7.09
29,Baarle-Hertog,0,BE,1567366788,58,51.44,4.93,63.0,3.36
30,Bredasdorp,0,ZA,1567366789,58,-34.53,20.04,59.0,13.87
31,Carnarvon,0,ZA,1567366790,28,-30.97,22.13,51.38,5.35
32,Puri,99,ID,1567366792,86,-7.54,112.45,69.2,7.43
33,Sola,63,TZ,1567366793,60,-3.17,33.8,73.88,8.48
34,Caluquembe,0,AO,1567366794,82,-13.78,14.68,57.68,4.97
35,Champerico,40,MX,1567366796,55,16.38,-93.6,87.8,6.93
36,Kinsale,75,IE,1567366578,82,51.71,-8.52,57.2,8.05
37,Tuktoyaktuk,20,CA,1567366798,70,69.44,-133.03,39.2,14.99
38,Dabola,75,GN,1567366799,95,10.74,-11.11,70.46,3.36
39,Barrow,18,AR,1567366800,57,-38.31,-60.23,45.8,5.7
40,East London,20,ZA,1567366802,77,-33.02,27.91,59.0,8.05
41,Tautira,75,PF,1567366803,73,-17.73,-149.15,75.2,1.12
42,Otorohanga,99,NZ,1567366804,91,-38.18,175.2,45.0,1.21
43,Kirakira,0,SB,1567366806,81,-10.46,161.92,78.92,3.02
44,Qaanaaq,0,GL,1567366807,50,77.48,-69.36,43.46,6.35
45,Ust-Omchug,40,RU,1567366812,68,61.13,149.63,43.82,2.17
46,Jamestown,0,AU,1567366814,64,-33.21,138.6,47.06,8.46
47,Qarqin,0,AF,1567366815,20,37.41,66.03,69.56,10.31
48,Batagay,52,RU,1567366816,84,67.65,134.64,45.26,2.06
49,Upernavik,0,GL,1567366817,79,72.79,-56.15,43.1,6.69
50,Blantyre,0,MW,1567366819,42,-15.79,35.0,77.3,14.63
51,Yellowknife,75,CA,1567366785,62,62.45,-114.38,51.8,4.7
52,Tucupita,81,VE,1567366821,57,9.06,-62.05,90.44,3.2
53,Santa Cruz del Norte,40,CU,1567366822,79,23.15,-81.92,89.6,9.17
54,Torbay,20,CA,1567366569,49,47.66,-52.73,71.01,17.22
55,Warrington,20,GB,1567366570,71,53.39,-2.59,57.2,9.17
56,Sao Filipe,100,CV,1567366826,82,14.9,-24.5,80.36,6.73
57,Horasan,23,TR,1567366827,65,40.04,42.16,60.02,2.8
58,Shingu,47,JP,1567366828,96,33.72,135.99,67.22,3.15
59,Krutikha,50,RU,1567366830,75,53.96,81.21,46.52,5.21
60,Port Elizabeth,1,US,1567366831,39,39.31,-74.98,84.2,6.93
61,Inhambane,20,MZ,1567366832,72,-23.87,35.38,68.0,4.7
62,Hobart,20,AU,1567366816,81,-42.88,147.33,46.4,11.41
63,Safranbolu,0,TR,1567366835,91,41.25,32.69,60.38,1.3
64,Manzhouli,49,CN,1567366836,69,49.6,117.43,55.52,5.99
65,Saint-Joseph,0,FR,1567366837,83,43.56,6.97,80.6,1.12
66,Pacific Grove,1,US,1567366839,64,36.62,-121.92,93.99,6.93
67,Komsomolskiy,98,RU,1567366840,89,67.55,63.78,44.18,15.59
68,Avarua,17,CK,1567366841,77,-21.21,-159.78,66.2,4.7
69,Ilulissat,20,GL,1567366842,27,69.22,-51.1,51.8,11.41
70,Petauke,0,ZM,1567366844,20,-14.25,31.33,80.0,15.59
71,Tiblawan,85,PH,1567366845,74,6.48,126.11,80.54,2.17
72,Pedernales,100,EC,1567366846,86,0.07,-80.05,71.36,13.22
73,Neuquen,0,AR,1567366847,19,-38.95,-68.06,59.0,12.75
74,Codrington,90,AU,1567366848,93,-28.95,153.24,55.0,9.17
75,Hambantota,90,LK,1567366850,100,6.12,81.12,75.2,5.82
76,Namatanai,100,PG,1567366851,84,-3.66,152.44,78.92,16.69
77,Punta Arenas,20,CL,1567366852,48,-53.16,-70.91,42.8,21.92
78,Minas,40,UY,1567366853,58,-34.38,-55.24,53.6,19.46
79,Chuy,32,UY,1567366855,66,-33.69,-53.46,51.56,13.4
80,Road Town,40,VG,1567366856,66,18.42,-64.62,87.8,6.93
81,Gushikawa,40,JP,1567366857,88,26.35,127.87,84.2,8.05
82,Belyy Yar,0,RU,1567366859,77,53.6,91.39,59.0,8.95
83,Saskylakh,100,RU,1567366860,88,71.97,114.09,40.22,12.24
84,Talnakh,0,RU,1567366861,100,69.49,88.39,42.8,8.95
85,Provideniya,90,RU,1567366863,81,64.42,-173.23,51.8,11.18
86,Hami,0,CN,1567366864,19,42.84,93.51,79.64,8.97
87,Mocuba,38,MZ,1567366865,85,-16.84,36.99,71.72,6.89
88,Tual,0,ID,1567366867,81,-5.67,132.75,76.04,19.86
89,Sorland,75,NO,1567366868,87,67.67,12.69,53.6,10.29
90,Kathu,0,ZA,1567366869,28,-27.7,23.05,55.0,7.16
91,Flinders,0,AU,1567366871,66,-34.58,150.85,55.0,5.82
92,Arraial do Cabo,0,BR,1567366872,61,-22.97,-42.02,80.6,3.36
93,Pitimbu,40,BR,1567366874,78,-7.47,-34.81,80.6,13.87
94,Paamiut,100,GL,1567366875,88,61.99,-49.67,44.18,35.48
95,Arrifes,20,PT,1567366876,64,37.77,-25.7,71.01,14.99
96,Hermanus,67,ZA,1567366877,83,-34.42,19.24,59.0,7.0
97,Karratha,0,AU,1567366879,45,-20.74,116.85,70.1,17.34
98,Doka,100,SD,1567366880,85,13.52,35.76,75.86,6.64
99,Nanortalik,100,GL,1567366881,87,60.14,-45.24,43.64,5.91
100,Camopi,74,GF,1567366882,61,3.17,-52.33,84.68,1.88
101,Thompson,75,CA,1567366862,39,55.74,-97.86,50.0,12.75
102,Shanhetun,62,CN,1567366885,99,44.7,127.2,60.2,3.38
103,Husavik,50,CA,1567366886,46,50.56,-96.99,72.0,13.6
104,Xining,34,CN,1567366887,79,36.62,101.77,44.0,3.94
105,Shush,3,RU,1567366889,82,55.6,89.45,46.34,4.36
106,Morondava,0,MG,1567366890,72,-20.3,44.28,76.94,21.79
107,Bambous Virieux,20,MU,1567366891,77,-20.34,57.76,69.01,5.82
108,Lebu,99,ET,1567366893,87,8.96,38.73,56.96,1.68
109,Krivosheino,84,RU,1567366894,96,57.34,83.93,45.26,6.46
110,Georgetown,20,GY,1567366755,62,6.8,-58.16,89.6,11.41
111,Lata,100,IN,1567366896,97,30.78,78.62,45.08,1.41
112,Leiva,40,CO,1567366897,31,1.94,-77.3,78.8,19.46
113,Whitianga,100,NZ,1567366899,96,-36.83,175.7,46.99,0.81
114,Iqaluit,90,CA,1567366900,87,63.75,-68.52,46.4,6.93
115,Milledgeville,1,US,1567366816,62,33.08,-83.23,90.0,6.93
116,Port Lincoln,0,AU,1567366902,62,-34.72,135.86,57.32,21.16
117,Saint-Philippe,1,CA,1567366904,46,45.36,-73.48,75.99,12.75
118,Pevek,100,RU,1567366905,89,69.7,170.27,37.7,7.07
119,Dogondoutchi,19,NE,1567366906,51,13.64,4.03,88.82,6.67
120,Luderitz,0,NA,1567366678,62,-26.65,15.16,59.0,6.93
121,Hithadhoo,100,MV,1567366909,76,-0.6,73.08,83.24,11.25
122,Cidreira,65,BR,1567366910,59,-30.17,-50.22,56.96,4.43
123,Benguela,100,AO,1567366911,84,-12.58,13.4,69.56,5.66
124,Tsiroanomandidy,53,MG,1567366912,49,-18.77,46.05,69.2,2.08
125,Pisco,0,PE,1567366913,30,-13.71,-76.2,71.6,11.41
126,Mahebourg,20,MU,1567366915,77,-20.41,57.7,69.01,5.82
127,Wanning,75,AT,1567366916,73,48.64,13.53,72.0,8.05
128,Norfolk,40,US,1567366849,65,36.85,-76.29,87.01,12.75
129,Bandarbeyla,88,SO,1567366919,78,9.49,50.81,74.96,21.83
130,Akdepe,0,TM,1567366920,59,42.05,59.39,60.8,4.7
131,Bluff,0,AU,1567366921,40,-23.58,149.07,58.4,5.44
132,Tasiilaq,1,GL,1567366923,55,65.61,-37.64,46.4,9.17
133,Zhumadian,80,CN,1567366924,92,33.01,114.02,67.22,4.59
134,Nikolskoye,0,RU,1567366925,63,59.7,30.79,66.2,6.71
135,Atuona,27,PF,1567366926,74,-9.8,-139.03,79.28,16.42
136,Bloemfontein,0,ZA,1567366928,39,-29.12,26.22,46.4,4.7
137,Bela,10,PK,1567366929,72,26.23,66.31,82.34,2.51
138,Yurty,65,RU,1567366930,94,56.05,97.64,48.86,0.81
139,Aksay,37,KZ,1567366932,76,51.17,53.01,48.68,2.98
140,Alta Floresta,20,BR,1567366933,30,-9.87,-56.08,98.6,3.36
141,Beihai,0,CN,1567366934,73,38.95,121.19,69.8,4.47
142,Leningradskiy,100,RU,1567366935,94,69.38,178.42,37.34,22.95
143,Kazerun,0,IR,1567366937,40,29.62,51.65,78.02,0.78
144,Makakilo City,20,US,1567366938,62,21.35,-158.09,87.8,9.17
145,Dunedin,69,NZ,1567366939,63,-45.87,170.5,48.99,1.99
146,Narsaq,100,GL,1567366652,66,60.91,-46.05,50.0,5.82
147,Kjollefjord,40,NO,1567366941,72,70.95,27.35,62.6,21.92
148,Ouesso,96,CG,1567366943,97,1.61,16.05,71.18,1.9
149,Vao,3,EE,1567366944,81,59.1,26.19,60.38,7.49
150,Llanes,100,ES,1567366945,10,43.42,-4.75,71.01,12.53
151,Dikson,95,RU,1567366947,93,73.51,80.55,42.02,3.42
152,Kushima,69,JP,1567366948,94,31.5,131.29,75.0,4.0
153,Skibbereen,75,IE,1567366949,82,51.55,-9.27,57.2,8.05
154,Albany,75,US,1567366950,49,42.65,-73.75,75.0,8.05
155,Longyearbyen,75,NO,1567366951,93,78.22,15.63,42.8,2.24
156,Airai,88,TL,1567366953,55,-8.93,125.41,64.52,3.89
157,Zharkent,96,KZ,1567366954,68,44.17,80.0,51.92,1.5
158,Garowe,91,SO,1567366955,59,8.41,48.48,78.56,25.64
159,Arman,78,RU,1567366956,77,59.7,150.17,48.32,1.83
160,Wanaka,42,NZ,1567366958,74,-44.7,169.14,37.99,1.99
161,Acapulco,20,MX,1567366959,74,16.86,-99.88,87.8,8.05
162,Axim,100,GH,1567366960,90,4.87,-2.24,75.5,12.53
163,Surab,0,PK,1567366961,36,28.49,66.26,74.06,2.53
164,Jawhar,100,IN,1567366963,94,19.91,73.23,76.04,4.38
165,Bida,100,NG,1567366964,93,9.08,6.02,74.78,4.92
166,Tuatapere,85,NZ,1567366965,83,-46.13,167.69,44.01,4.0
167,Bathurst,0,AU,1567366892,72,-33.42,149.58,42.01,7.0
168,Takoradi,98,GH,1567366968,93,4.89,-1.75,73.52,5.5
169,Lere,81,TD,1567366969,94,9.66,14.23,71.9,0.72
170,Malyye Derbety,0,RU,1567366970,47,47.95,44.68,62.18,6.69
171,Izumo,75,JP,1567366971,100,35.37,132.75,71.6,2.24
172,Dingle,100,PH,1567366972,88,11.0,122.67,72.98,2.8
173,Sanmenxia,1,CN,1567366974,74,34.77,111.19,65.06,3.15
174,Pathalgaon,49,IN,1567366975,93,22.56,83.46,75.68,1.23
175,San Patricio,0,PY,1567366976,62,-26.98,-56.83,61.28,6.58
176,Saldus,0,LV,1567366977,87,56.67,22.49,65.78,8.7
177,Cherskiy,15,RU,1567366904,67,68.75,161.3,37.34,4.47
178,Henties Bay,0,NA,1567366980,95,-22.12,14.28,52.0,5.99
179,Isangel,84,VU,1567366981,86,-19.55,169.27,75.14,21.65
180,Jega,22,NG,1567366982,67,12.22,4.38,82.88,8.32
181,Tsabong,0,BW,1567366983,17,-26.02,22.4,54.62,7.96
182,Kaitangata,93,NZ,1567366874,63,-46.28,169.85,45.0,8.01
183,Salalah,75,OM,1567366986,88,17.01,54.1,80.6,5.82
184,Goderich,62,CA,1567366987,77,43.74,-81.71,71.01,4.0
185,Torbat-e Jam,0,IR,1567366988,35,35.24,60.63,57.86,6.8
186,Vestmanna,57,FO,1567366989,87,62.16,-7.17,48.2,13.87
187,Mach,0,PK,1567366991,62,29.87,67.33,72.62,2.53
188,Gawler,0,AU,1567366809,86,-34.6,138.75,53.01,16.11
189,Chapais,90,CA,1567366993,48,49.78,-74.86,66.2,18.34
190,Mareeba,24,AU,1567366995,77,-16.99,145.42,66.2,11.41
191,Nchelenge,0,ZM,1567366996,46,-9.35,28.74,73.16,7.67
192,Rabo de Peixe,20,PT,1567366997,64,37.8,-25.58,71.01,14.99
193,Kaseda,100,JP,1567366998,94,31.42,130.32,75.0,4.0
194,Coihaique,40,CL,1567366999,39,-45.58,-72.07,48.2,9.17
195,Novoagansk,65,RU,1567367001,97,61.94,76.66,45.44,8.32
196,San Cristobal,49,HN,1567367002,40,14.68,-86.92,87.2,5.53
197,Angoram,97,PG,1567367003,98,-4.06,144.07,72.62,2.04
198,Fort Nelson,90,CA,1567367004,100,58.81,-122.69,48.2,2.77
199,Vardo,90,US,1567367006,64,39.62,-77.74,80.01,4.7
200,Necochea,2,AR,1567367007,64,-38.55,-58.74,45.26,9.13
201,Guerrero Negro,6,MX,1567367008,75,27.97,-114.04,72.98,10.65
202,San Javier,0,BR,1567367009,53,-27.87,-55.13,66.0,1.99
203,Norman Wells,90,CA,1567367011,81,65.28,-126.83,46.4,6.93
204,Ternate,40,PH,1567367012,88,14.29,120.72,79.0,2.24
205,Dosso,23,NE,1567367013,64,13.05,3.19,85.22,8.46
206,Mandaon,100,PH,1567367015,78,12.23,123.28,81.62,11.97
207,Saint George,20,GR,1567366946,53,39.45,22.34,73.4,6.93
208,Urusha,74,RU,1567367017,91,54.05,122.9,43.46,1.77
209,Khajuraho,100,IN,1567367018,84,24.85,79.93,81.08,4.23
210,Nieuw Amsterdam,20,SR,1567367019,44,5.88,-55.08,93.2,6.93
211,Rocha,4,UY,1567366827,72,-34.48,-54.34,45.62,8.99
212,Kangalassy,0,RU,1567367022,93,62.35,129.97,42.8,5.59
213,Coquimbo,0,CL,1567367023,71,-29.95,-71.34,57.2,11.41
214,Srednekolymsk,48,RU,1567367018,51,67.46,153.71,43.28,5.55
215,Canmore,90,CA,1567366726,100,51.09,-115.35,54.0,8.05
216,Belaya Kholunitsa,86,RU,1567367026,78,58.84,50.85,46.88,3.67
217,Jacareacanga,75,BR,1567367028,35,-6.22,-57.76,92.6,4.72
218,Itarema,72,BR,1567367029,77,-2.92,-39.92,78.02,13.62
219,Batken,95,KG,1567367030,29,40.06,70.82,59.84,7.74
220,Boulder City,1,US,1567367031,12,35.98,-114.83,104.0,6.93
221,Chokurdakh,99,RU,1567367033,60,70.62,147.9,45.26,9.1
222,Comodoro Rivadavia,75,AR,1567367034,45,-45.87,-67.48,46.4,14.99
223,Noumea,99,NC,1567367035,94,-22.28,166.46,75.0,1.12
224,Geraldton,90,CA,1567367036,100,49.72,-86.95,57.2,4.7
225,Douglas,20,US,1567367037,51,58.28,-134.39,62.6,4.7
226,Luganville,75,VU,1567367039,94,-15.51,167.18,75.2,3.36
227,Aswan,41,EG,1567367040,15,24.09,32.9,87.2,12.03
228,Khatanga,8,RU,1567367041,95,71.98,102.47,35.18,8.21
229,Kloulklubed,75,PW,1567367042,88,7.04,134.26,78.8,8.05
230,Elk,0,PL,1567367043,76,53.83,22.36,65.42,10.07
231,Moba,0,CD,1567367045,37,-7.04,29.77,67.4,2.57
232,Adrar,50,DZ,1567367046,20,27.87,-0.29,96.8,6.93
233,Fairbanks,1,US,1567366902,66,64.84,-147.72,57.0,9.17
234,Sibu,75,MY,1567367048,94,2.29,111.83,75.2,2.26
235,Havelock,90,US,1567367027,83,34.88,-76.9,84.2,6.93
236,Warwick,40,US,1567367051,53,41.7,-71.42,75.99,9.17
237,Mogadishu,20,SO,1567367052,74,2.04,45.34,78.8,17.22
238,Victoria,75,BN,1567366985,83,5.28,115.24,82.4,2.24
239,Moose Factory,90,CA,1567366825,93,51.26,-80.61,57.2,11.41
240,Emerald,0,AU,1567367056,50,-23.53,148.16,51.8,5.82
241,Healdsburg,1,US,1567366838,45,38.61,-122.87,96.01,5.82
242,Kavaratti,100,IN,1567367058,77,10.57,72.64,82.16,17.76
243,Sakaiminato,75,JP,1567367060,100,35.55,133.23,71.6,2.24
244,Yulara,0,AU,1567366874,23,-25.24,130.99,48.2,5.82
245,Homer,75,US,1567366868,67,59.64,-151.54,62.6,4.7
246,Grand Gaube,20,MU,1567367063,77,-20.01,57.66,69.01,5.82
247,Mehamn,20,NO,1567366895,72,71.03,27.85,62.6,8.05
248,Sibolga,71,ID,1567367066,82,1.74,98.78,81.08,12.3
249,Ayan,72,IR,1567367067,65,38.23,44.7,56.6,3.65
250,Udachnyy,75,RU,1567366958,70,66.42,112.4,48.2,4.47
251,Birin,99,NP,1567367069,92,26.89,88.07,62.9,2.93
252,Katherine,0,AU,1567367070,54,-14.47,132.26,57.2,5.82
253,Juneau,20,US,1567367072,51,58.3,-134.42,62.6,4.7
254,Kalmunai,100,LK,1567367073,70,7.42,81.82,77.3,2.8
255,Umm Kaddadah,0,SD,1567367074,42,13.6,26.69,88.64,10.74
256,Caravelas,12,BR,1567367075,80,-17.73,-39.27,74.24,10.49
257,Jining,100,CN,1567367077,86,35.41,116.58,67.58,1.54
258,Sinnamary,31,GF,1567367078,79,5.38,-52.96,81.44,16.84
259,Doha,0,QA,1567367079,59,25.29,51.53,95.0,4.7
260,Gryazovets,95,RU,1567367080,97,58.88,40.25,56.6,4.43
261,Grindavik,20,IS,1567367082,76,63.84,-22.43,48.2,11.41
262,Biggar,3,CA,1567367083,43,52.06,-107.98,66.5,6.33
263,Rawson,56,AR,1567366959,60,-43.3,-65.11,43.28,26.33
264,Eyl,100,SO,1567367085,77,7.98,49.82,74.24,22.77
265,Anito,100,PH,1567367086,96,12.45,125.29,73.52,3.78
266,Kaoma,40,ZM,1567367088,25,-14.8,24.8,69.02,6.62
267,Bereda,75,ES,1567367089,72,43.27,-7.54,64.99,13.87
268,Los Llanos de Aridane,75,ES,1567367090,69,28.66,-17.92,75.2,12.75
269,Port-Gentil,75,GA,1567367091,88,-0.72,8.78,77.0,13.87
270,Shimoda,54,JP,1567366999,77,34.7,138.93,73.99,1.01
271,Parasia,100,IN,1567367093,97,22.19,78.76,73.16,4.61
272,Atar,39,MR,1567367095,50,20.52,-13.05,89.72,15.03
273,Ribeira Grande,75,PT,1567367096,83,38.52,-28.7,75.2,3.36
274,Niamey,20,NE,1567367097,46,13.52,2.11,93.2,6.93
275,Pontes e Lacerda,12,BR,1567367098,32,-15.23,-59.33,91.88,5.21
276,Kiboga,1,UG,1567367100,90,0.92,31.77,62.36,1.43
277,Oktyabrskiy,71,RU,1567367101,82,55.61,37.97,69.01,2.24
278,Lethem,86,GY,1567367102,53,3.38,-59.8,89.9,4.47
279,La Cruz,35,MX,1567367103,73,23.92,-106.89,88.0,1.99
280,San Roque,20,CO,1567367105,44,6.49,-75.02,87.8,18.34
281,Pangnirtung,75,CA,1567367106,81,66.15,-65.72,48.2,14.99
282,Darhan,93,MN,1567367107,76,49.49,105.92,61.1,3.38
283,Lavrentiya,100,RU,1567367108,96,65.58,-170.99,45.98,11.54
284,Ixtapa,90,MX,1567367110,66,20.71,-105.21,90.0,9.17
285,Clyde River,5,CA,1567367111,70,70.47,-68.59,46.4,14.99
286,Erdaojiang,0,CN,1567367112,97,41.78,126.03,53.36,4.18
287,Saldanha,0,PT,1567366914,48,41.42,-6.55,71.72,11.34
288,Kidal,9,ML,1567367114,21,18.44,1.41,95.48,4.68
289,Severo-Kurilsk,92,RU,1567367116,95,50.68,156.12,49.94,9.08
290,Alofi,96,NU,1567367117,73,-19.06,-169.92,71.6,17.22
291,Misratah,100,LY,1567367118,73,32.38,15.09,81.8,9.08
292,Cabedelo,40,BR,1567367120,78,-6.97,-34.84,80.6,13.87
293,Pereslavl-Zalesskiy,90,RU,1567367121,83,56.74,38.86,58.22,2.57
294,Mitu,0,IR,1567367122,72,36.2,46.09,57.5,0.36
295,Bahir Dar,100,ET,1567367123,96,11.59,37.39,58.04,2.73
296,Souillac,0,FR,1567367125,59,45.6,-0.6,66.2,8.05
297,Hvide Sande,0,DK,1567367126,87,56.01,8.13,55.99,4.7
298,Taoudenni,100,ML,1567367127,25,22.68,-3.98,99.26,17.0
299,Kenora,75,CA,1567367128,72,49.76,-94.48,64.4,8.05
300,Gambela,100,ET,1567367130,75,8.25,34.59,69.92,4.38
301,Zhigansk,99,RU,1567367131,83,66.77,123.37,50.12,7.38
302,Maningrida,100,AU,1567367132,88,-12.05,134.23,57.5,5.64
303,Roald,75,NO,1567367133,87,62.58,6.12,51.8,10.29
304,Carballo,75,ES,1567367135,72,43.21,-8.69,66.99,13.87
305,Sambava,83,MG,1567367136,97,-14.27,50.17,65.06,3.02
306,Batagay-Alyta,100,RU,1567367137,87,67.8,130.41,37.52,2.39
307,Thinadhoo,100,MV,1567367138,77,0.53,72.93,82.88,8.79
308,Faya,0,SA,1567367140,73,18.39,42.45,75.2,3.36
309,Chunskiy,76,RU,1567367141,97,56.08,99.63,50.66,1.97
310,Hoopstad,0,ZA,1567367142,28,-27.83,25.91,48.5,6.24
311,Lompoc,1,US,1567367143,54,34.64,-120.46,100.0,11.41
312,Aland,100,IN,1567367145,90,17.57,76.57,72.62,14.14
313,Dolores,0,UY,1567367146,38,-33.53,-58.22,59.0,11.01
314,Carutapera,65,BR,1567367147,78,-1.2,-46.02,79.64,7.94
315,Kununurra,100,AU,1567367148,81,-15.77,128.74,53.6,1.12
316,San Quintin,100,PH,1567367150,92,17.54,120.52,73.7,4.36
317,Yar-Sale,45,RU,1567367151,86,66.83,70.83,47.6,15.35
318,Corrales,86,CO,1567367152,82,5.83,-72.84,56.6,1.63
319,Ialibu,99,PG,1567367153,99,-6.28,143.99,61.28,0.81
320,Qaqortoq,100,GL,1567367155,66,60.72,-46.03,50.0,5.82
321,Mayo,75,CA,1567367156,47,63.59,-135.9,59.0,2.77
322,Bushehr,0,IR,1567367157,39,28.97,50.84,100.4,11.41
323,Staryy Nadym,100,RU,1567367158,88,65.61,72.68,53.9,12.75
324,Tiksi,100,RU,1567366931,93,71.64,128.87,39.32,7.07
325,Cervo,40,BR,1567367161,44,-22.19,-46.24,78.8,6.33
326,Padang,7,ID,1567367162,84,-0.92,100.36,80.9,17.4
327,Cabo San Lucas,75,MX,1567366971,70,22.89,-109.91,93.0,4.7
328,Lincoln,20,GB,1567367164,66,53.23,-0.54,59.0,9.17
329,Freeport,100,BS,1567367166,74,26.54,-78.7,85.04,32.5
330,Recke,0,DE,1567367167,76,52.37,7.72,62.01,2.24
331,Sjovegan,75,NO,1567367168,60,68.87,17.85,69.8,25.28
332,Sao Miguel do Araguaia,99,BR,1567367169,18,-13.28,-50.16,95.3,5.53
333,Garden City,1,US,1567367171,18,43.62,-116.24,91.0,4.7
334,Ust-Kuyga,100,RU,1567367172,91,70.0,135.55,42.56,2.77
335,Sorong,57,ID,1567367173,89,-0.86,131.25,73.16,7.87
336,Harper,75,US,1567367174,36,30.3,-99.24,93.2,6.93
337,Kattivakkam,40,IN,1567367176,84,13.22,80.32,86.0,4.7
338,Banda Aceh,67,ID,1567367177,81,5.56,95.32,81.62,12.08
339,Olinda,90,AU,1567367178,93,-37.84,145.39,52.0,6.93
340,Acari,90,BR,1567367180,47,-6.44,-36.64,85.58,21.94
341,Patan,20,NP,1567367181,88,27.67,85.33,71.6,3.49
342,Pangody,100,RU,1567367182,89,65.85,74.49,53.9,14.25
343,Muros,75,ES,1567367183,77,42.77,-9.06,68.0,11.41
344,Genhe,52,CN,1567367185,91,50.78,121.52,42.38,1.16
345,Kavieng,100,PG,1567367186,75,-2.57,150.8,83.06,8.61
346,Hay River,75,CA,1567367187,54,60.82,-115.79,57.2,12.75
347,Porto Murtinho,99,BR,1567367189,70,-21.7,-57.88,64.16,3.0
348,Astoria,90,US,1567367190,82,46.19,-123.83,77.0,5.82
349,Ponta do Sol,64,BR,1567367192,35,-20.63,-46.0,77.12,1.81
350,Alexandria,0,RO,1567367195,55,43.97,25.33,63.0,5.93
351,Oranjemund,0,ZA,1567367196,80,-28.55,16.43,57.5,29.12
352,Palatka,5,RU,1567367197,72,60.1,150.94,44.54,3.09
353,Mogzon,67,RU,1567367198,74,51.74,111.97,52.82,3.83
354,Springdale,20,US,1567367035,74,36.19,-94.13,88.0,3.36
355,Santa Lucia,0,IT,1567367201,78,41.98,12.66,79.0,6.93
356,Ikom,100,NG,1567367202,97,5.96,8.72,72.8,3.24
357,Baruun-Urt,43,MN,1567367203,77,46.68,113.28,54.08,2.93
358,Awbari,14,LY,1567367204,24,26.59,12.77,86.66,9.84
359,Avera,40,US,1567367001,66,33.19,-82.53,89.6,9.17
360,Bethel,90,US,1567367207,87,60.79,-161.76,55.4,8.05
361,Zhaotong,100,CN,1567367208,96,27.34,103.71,54.44,3.15
362,Rio Cuarto,0,AR,1567367209,25,-33.13,-64.35,60.8,9.17
363,Sumenep,92,ID,1567367210,92,-7.02,113.87,71.54,6.15
364,Gobabis,0,NA,1567367212,9,-22.45,18.97,59.0,3.36
365,Swan River,94,CA,1567367213,57,52.11,-101.27,56.6,5.73
366,Shawville,38,CA,1567367214,42,45.61,-76.49,77.0,1.01
367,Khandbari,99,NP,1567367216,89,27.38,87.21,59.12,1.19
368,San Carlos de Bariloche,0,AR,1567367217,34,-41.13,-71.31,48.2,21.92
369,Buala,84,SB,1567367218,79,-8.15,159.59,81.62,7.9
370,Nevelsk,75,RU,1567367219,100,46.67,141.86,46.4,16.24
371,Falavarjan,0,IR,1567367221,19,32.56,51.51,78.8,4.7
372,Lazaro Cardenas,40,MX,1567367222,32,28.39,-105.62,87.01,6.93
373,Caohai,100,CN,1567367223,97,26.87,104.28,56.96,3.18
374,Leh,0,IN,1567367224,49,34.16,77.58,46.7,3.74
375,Sjenica,5,RS,1567367226,58,43.27,20.0,57.86,2.57
376,Kyren,100,RU,1567367227,93,51.68,102.13,47.96,0.89
377,Malanje,73,AO,1567367228,54,-9.54,16.35,72.62,1.54
378,Merced,1,US,1567367229,27,37.3,-120.48,97.0,6.93
379,Agirish,100,RU,1567367230,93,61.92,63.02,48.14,11.79
380,General Cepeda,40,MX,1567367232,47,25.38,-101.48,78.8,6.93
381,Neiafu,75,TO,1567367233,64,-18.65,-173.98,73.4,9.17
382,Seminole,1,US,1567367234,29,32.72,-102.64,100.0,6.93
383,Garissa,0,KE,1567367235,68,-0.46,39.64,74.96,17.13
384,Batemans Bay,0,AU,1567367237,84,-35.71,150.18,50.0,1.99
385,Atasu,100,KZ,1567367238,38,48.68,71.64,53.18,9.33
386,Tutoia,20,BR,1567367242,66,-2.76,-42.27,86.0,12.75
387,Angoche,0,MZ,1567367243,89,-16.23,39.91,71.54,3.47
388,Celestun,0,MX,1567367245,79,20.87,-90.4,82.52,12.59
389,Broken Hill,0,AU,1567367246,57,-31.97,141.45,50.0,10.29
390,Zonguldak,0,TR,1567367247,77,41.25,31.83,74.06,12.55
391,Namibe,97,AO,1567367248,86,-15.19,12.15,65.24,9.01
392,Miri,57,NG,1567367250,80,10.31,9.75,72.08,4.38
393,Akmene,5,LV,1567367251,68,56.71,21.38,66.2,4.7
394,Abu Samrah,0,SY,1567367252,80,35.3,37.18,72.08,10.31
395,Kahului,40,US,1567367253,66,20.89,-156.47,84.99,23.04
396,Sayyan,22,YE,1567367255,64,15.17,44.32,74.96,2.89
397,Nishihara,75,JP,1567367256,94,35.74,139.53,79.0,2.24
398,Kuopio,0,FI,1567367257,77,62.89,27.68,60.8,5.82
399,Sur,7,OM,1567367258,59,22.57,59.53,80.72,10.54
400,Eidfjord,97,NO,1567367260,74,60.47,7.07,44.01,4.05
401,Vila,0,IT,1567367261,54,45.18,8.4,82.99,6.93
402,Vetlanda,20,SE,1567367262,93,57.43,15.09,59.0,6.93
403,Bitkine,100,TD,1567367263,74,11.98,18.21,74.78,8.7
404,Puerto Colombia,40,CO,1567367265,53,10.99,-74.96,95.0,4.7
405,Asosa,100,ET,1567367266,91,10.07,34.53,65.24,3.69
406,Les Cayes,26,HT,1567367267,77,18.19,-73.75,83.96,13.13
407,Manado,40,ID,1567367268,61,1.49,124.85,78.8,8.05
408,Merrill,1,US,1567367270,33,42.03,-121.6,81.0,4.7
409,La Ronge,75,CA,1567367271,58,55.1,-105.3,57.2,6.93
410,Boadilla del Monte,40,ES,1567367272,39,40.41,-3.88,86.0,2.24
411,Wageningen,0,NL,1567367274,67,51.98,5.66,61.0,4.7
412,Delijan,0,IR,1567367275,26,33.99,50.69,70.1,5.75
413,Port Augusta,0,AU,1567367276,93,-32.49,137.76,46.99,5.82
414,Palestine,1,US,1567367167,62,31.76,-95.63,95.0,3.36
415,Bridlington,0,GB,1567367278,76,54.08,-0.19,57.2,9.17
416,Mtambile,0,TZ,1567367280,80,-5.38,39.7,77.3,11.74
417,Mbaiki,95,CF,1567367281,97,3.87,17.99,69.74,0.83
418,Kapit,100,MY,1567367282,99,2.02,112.94,72.26,0.45
419,Podolsk,0,RU,1567367283,87,55.43,37.55,69.01,3.4
420,Bonavista,22,CA,1567367285,71,48.65,-53.11,63.0,3.0
421,Tabou,100,CI,1567367286,91,4.42,-7.36,74.6,6.04
422,Sitka,2,US,1567367287,66,37.17,-99.65,86.0,5.99
423,Lazurne,7,UA,1567367289,41,46.77,34.99,70.28,4.92
424,Marzuq,78,YE,1567367290,38,14.4,46.47,79.46,2.62
425,Matara,18,BI,1567367291,62,-3.48,29.48,55.88,2.08
426,Valdivia,20,CL,1567367292,43,-39.81,-73.25,55.4,11.41
427,Rundu,0,NA,1567367293,8,-17.91,19.77,68.0,2.24
428,Wegorzewo,0,PL,1567367295,64,54.22,21.74,69.56,11.36
429,Bangkalan,93,ID,1567367296,88,-7.05,112.74,69.74,6.89
430,Rondonopolis,0,BR,1567367297,23,-16.46,-54.64,94.94,7.09
431,Kinshasa,40,CD,1567367004,51,-4.32,15.31,87.8,6.93
432,Kristiansund,90,NO,1567367300,81,63.12,7.73,51.8,10.29
433,Aklavik,75,CA,1567367301,65,68.22,-135.01,46.4,3.36
434,Briceno,93,CO,1567367302,94,7.11,-75.55,65.06,1.63
435,Varkkallai,75,IN,1567367304,88,8.73,76.71,78.8,4.7
436,Guanare,97,VE,1567367305,70,9.04,-69.74,81.8,1.7
437,Senador Jose Porfirio,39,BR,1567367306,60,-2.59,-51.95,88.46,1.57
438,Riorges,0,FR,1567367307,72,46.04,4.03,68.0,8.05
439,Murray,1,US,1567367309,20,40.67,-111.89,96.01,12.75
440,Santa Rosa,0,AR,1567367310,19,-36.62,-64.29,55.7,1.99
441,Egvekinot,100,RU,1567367311,84,66.32,-179.17,40.76,18.01
442,Vila Franca do Campo,20,PT,1567367075,64,37.72,-25.43,71.01,14.99
443,Nizhniy Odes,33,RU,1567367314,97,63.64,54.86,40.76,5.53
444,Lenoir,40,US,1567367315,45,35.91,-81.54,88.0,5.82
445,Khudaganj,69,IN,1567367316,86,28.19,79.75,80.54,5.12
446,Papar,75,MY,1567367317,88,5.73,115.93,80.6,4.7
447,Hurricane,1,US,1567367319,10,37.18,-113.29,100.99,14.94
448,Kargasok,99,RU,1567367320,93,59.06,80.87,45.08,6.62
449,Viedma,19,AR,1567367321,34,-40.81,-62.99,49.94,6.13
450,Ljubljana,0,SI,1567367322,77,46.05,14.51,75.99,10.29
451,Klaksvik,31,FO,1567367324,87,62.23,-6.59,48.2,13.87
452,Polunochnoye,100,RU,1567367325,98,60.87,60.43,45.08,5.44
453,Kikwit,100,CD,1567367326,53,-5.04,18.82,81.62,2.06
454,Qasigiannguit,20,GL,1567367327,27,68.82,-51.19,51.8,11.41
455,Harrisonburg,90,US,1567367031,73,38.45,-78.87,82.99,4.18
456,Turukhansk,65,RU,1567367330,89,65.8,87.96,51.2,5.86
457,Lensk,0,RU,1567367331,94,60.71,114.91,47.6,3.69
458,Visby,40,SE,1567367332,88,57.64,18.3,70.0,12.75
459,Mangrol,100,IN,1567367333,83,25.33,76.51,81.26,4.18
460,Ingleside,75,CA,1567367335,46,45.0,-74.99,75.99,8.05
461,Ancud,40,CL,1567367336,61,-41.87,-73.83,50.0,21.92
462,Booue,100,GA,1567367337,79,-0.09,11.94,75.68,3.56
463,Vadso,40,NO,1567367338,77,70.07,29.75,60.8,3.36
464,Rome,0,IT,1567367227,78,41.89,12.48,79.0,6.93
465,Skjervoy,75,NO,1567367341,60,70.03,20.97,69.8,16.11
466,Oistins,40,BB,1567367342,66,13.07,-59.53,87.8,11.41
467,Esperance,0,AU,1567367343,93,-33.86,121.89,48.2,11.41
468,Waingapu,100,ID,1567367345,91,-9.65,120.26,65.06,7.96
469,Ketchikan,1,US,1567367110,72,55.34,-131.65,64.4,5.82
470,Manono,0,CD,1567367347,43,-7.3,27.4,79.28,2.04
471,Hasaki,20,JP,1567367348,100,35.73,140.83,73.4,2.24
472,Ambilobe,0,MG,1567367350,77,-13.19,49.05,71.0,8.68
473,Sioux Lookout,90,CA,1567367340,82,50.1,-91.92,60.8,8.5
474,Tazovskiy,100,RU,1567367352,91,67.47,78.7,46.52,11.95
475,Beitbridge,0,ZA,1567367353,80,-22.21,29.99,56.42,12.97
476,San Lorenzo,0,HN,1567367354,53,13.43,-87.45,95.0,6.93
477,Pampa,1,US,1567367356,31,35.54,-100.96,93.2,5.82
478,Alpinopolis,99,BR,1567367357,35,-20.86,-46.39,76.94,2.35
479,Mozarlandia,96,BR,1567367358,16,-14.74,-50.57,94.76,3.91
480,Chiavari,0,IT,1567367359,65,44.32,9.32,80.6,4.7
481,Gizo,40,IL,1567367361,74,31.8,34.94,84.2,4.7
482,Amapa,40,HN,1567367362,41,15.09,-87.97,95.0,6.93
483,Santa Teresa,0,BR,1567367363,69,-19.94,-40.6,80.6,17.22
484,Otane,4,NZ,1567367365,80,-39.89,176.62,48.0,7.0
485,Le Vauclin,20,MQ,1567367366,66,14.55,-60.84,89.6,13.87
486,Harstad,90,NO,1567367367,87,68.8,16.53,57.99,25.28
487,Iralaya,40,HN,1567367368,59,15.0,-83.23,93.2,9.17
488,Saint-Pierre,0,FR,1567367370,55,48.95,4.24,62.6,5.82
489,Auki,86,NG,1567367371,82,12.18,6.51,76.22,7.16
490,Beya,100,RU,1567367372,76,53.05,90.92,54.62,2.33
491,Verkhoyansk,80,RU,1567367373,78,67.55,133.39,44.36,1.81
492,Hovd,75,NO,1567367375,82,63.83,10.7,57.0,17.22
493,Dafeng,100,CN,1567367376,90,33.2,120.46,66.32,6.04
494,Ostrovnoy,90,RU,1567367377,90,68.05,39.51,55.88,8.9
495,Goundi,100,TD,1567367378,96,9.36,17.37,73.7,4.65
496,Neryungri,67,RU,1567367379,85,56.66,124.71,41.48,3.42
497,Honningsvag,40,NO,1567367381,72,70.98,25.97,60.8,21.92
498,Victor Harbor,0,AU,1567367382,86,-35.55,138.62,52.0,16.11
499,Ponta Delgada,20,PT,1567367366,64,37.73,-25.67,71.01,14.99
500,Grand Island,75,US,1567367278,78,40.92,-98.34,82.0,6.93
501,Najran,0,SA,1567367385,14,17.54,44.22,87.8,4.7
502,Deputatskiy,97,RU,1567367387,77,69.3,139.9,42.92,3.38
503,Along,100,IN,1567367388,86,28.17,94.8,62.18,4.68
504,Moree,0,AU,1567367389,56,-29.46,149.84,44.6,1.99
505,Simplicio Mendes,24,BR,1567367391,26,-7.85,-41.91,85.04,3.18
506,Zyryanka,0,RU,1567367392,52,65.73,150.89,45.98,6.22
507,Wilmington,90,US,1567367393,44,39.75,-75.55,84.99,3.36
508,Ardahan,58,TR,1567367394,91,41.11,42.7,48.32,2.3
509,Agadez,0,NE,1567367396,21,16.97,7.99,98.36,13.78
510,Kaeo,100,NZ,1567367397,100,-35.1,173.78,50.0,6.69
511,Hirara,0,JP,1567367398,80,24.8,125.28,83.6,16.13
512,Santa Ana,0,MX,1567367399,50,30.54,-111.12,93.0,1.01
513,Lakselv,40,NO,1567367400,77,70.05,24.96,66.2,35.57
514,Morehead,20,US,1567367402,45,38.18,-83.43,89.01,9.17
515,Belmonte,26,PT,1567367404,63,40.36,-7.35,89.01,2.77
516,Colima,75,MX,1567367405,74,19.25,-103.72,82.4,6.93
517,Marsh Harbour,88,BS,1567367406,89,26.54,-77.06,81.08,76.57
518,Biryusinsk,65,RU,1567367408,94,55.96,97.82,48.86,0.81
519,Sao Joao da Barra,0,BR,1567367409,58,-21.64,-41.05,82.4,13.87
520,Urukh,75,RU,1567367410,59,43.3,44.03,64.4,2.24
521,Marawi,99,PH,1567367412,95,8.0,124.29,73.99,7.0
522,Inongo,98,CD,1567367413,80,-1.93,18.29,75.68,2.39
523,Mikulov,0,CZ,1567367414,57,48.81,16.64,75.2,4.7
524,Lawrenceburg,75,US,1567367415,52,35.24,-87.33,91.99,3.36
525,Prince Albert,75,CA,1567367178,67,53.2,-105.75,59.0,2.24
526,Sabang,100,PH,1567367418,96,13.8,121.11,75.0,1.7
527,Datong,0,CN,1567367419,47,40.09,113.3,63.26,4.07
528,Shotts,20,GB,1567367420,76,55.82,-3.79,55.0,8.05
529,Belaya Gora,75,RU,1567367422,58,68.54,146.19,43.82,9.28
530,Saint-Nazaire,0,FR,1567367423,52,47.27,-2.21,66.2,6.93
531,Port Blair,100,IN,1567367424,82,11.67,92.75,81.8,22.95
532,Blagoyevo,0,RU,1567367425,75,63.37,47.92,41.66,1.21
533,South Sioux City,90,US,1567367427,78,42.47,-96.41,80.6,10.29
534,Zhenjiang,100,CN,1567367428,93,32.21,119.46,73.0,7.85
535,Hohhot,0,CN,1567367429,71,40.81,111.65,55.4,4.47
536,Korhogo,100,CI,1567367430,95,9.46,-5.63,71.36,0.65
537,Guarapuava,100,BR,1567367432,97,-25.4,-51.46,56.78,4.38
538,Santa Cruz,85,BR,1567367221,64,-6.22,-36.02,77.3,16.28
539,Anchorage,90,US,1567367185,82,61.22,-149.89,61.0,11.41
540,Khotyn,0,UA,1567367435,60,48.51,26.49,75.2,1.48
541,Springbok,0,ZA,1567367437,67,-29.67,17.88,53.18,4.56
542,Baykit,100,RU,1567367438,94,61.68,96.39,50.66,14.79
543,Richards Bay,0,ZA,1567367439,70,-28.77,32.06,65.96,11.14
544,West Wendover,1,US,1567367292,6,40.74,-114.07,86.0,6.93
545,Vanimo,100,PG,1567367441,78,-2.67,141.3,80.54,7.38
546,Maraa,66,BR,1567367443,63,-1.83,-65.37,88.28,1.57
547,Tromso,75,NO,1567367444,68,69.65,18.96,69.8,11.41
548,Beira,75,ES,1567367445,77,43.2,-8.36,66.99,9.17
549,Echirolles,90,FR,1567367446,64,45.14,5.73,69.8,4.7
550,Haimen,100,CN,1567367448,95,31.87,121.18,77.0,5.86
551,Kieta,29,PG,1567367449,75,-6.22,155.63,80.9,4.52
552,Mingguang,100,CN,1567367450,84,32.78,118.01,66.5,7.23
553,Mayumba,61,GA,1567367451,88,-3.44,10.65,71.9,8.19
554,Tessalit,43,ML,1567367453,18,20.2,1.01,98.72,10.47
555,Utiel,20,ES,1567367454,54,39.57,-1.21,84.2,12.75
556,Alice Springs,0,AU,1567367455,21,-23.7,133.88,48.2,6.04
557,General Pico,0,AR,1567367457,29,-35.66,-63.75,55.88,1.23
558,Port Hardy,75,CA,1567367458,100,50.7,-127.42,59.0,2.1
559,Santa Maria,0,BR,1567367460,22,-16.02,-48.01,89.6,5.82
560,Penha,75,BR,1567367467,82,-26.78,-48.65,63.0,6.93
561,Tandil,60,AR,1567367472,62,-37.33,-59.14,45.08,7.14
562,Fortuna,1,US,1567367473,77,40.6,-124.16,84.99,13.87
563,Port Hedland,0,AU,1567367474,93,-20.31,118.58,60.8,2.24
564,Huarmey,6,PE,1567367476,90,-10.07,-78.15,60.56,13.13
565,Lashio,83,MM,1567367180,97,22.93,97.75,69.74,0.96
566,Nalut,0,LY,1567367478,65,31.86,10.98,74.24,11.92
567,Cockburn Town,40,TC,1567367479,66,21.46,-71.14,91.4,11.41
568,Imeni Poliny Osipenko,100,RU,1567367480,96,52.42,136.49,50.84,2.55
569,Thunder Bay,75,CA,1567367482,64,48.41,-89.26,69.8,8.05
570,Mecca,19,SA,1567367358,55,21.43,39.83,85.04,6.42
571,Vestmannaeyjar,0,IS,1567367484,68,63.44,-20.27,50.3,15.37
572,Nome,40,US,1567367485,44,30.04,-94.42,96.01,8.05
573,Barcelos,87,BR,1567367420,54,-0.97,-62.93,89.72,3.2
574,Limbang,75,BN,1567367488,83,4.75,115.01,82.4,3.36
575,Ocala,40,US,1567367413,89,29.19,-82.14,89.01,11.41
576,Charters Towers,0,AU,1567367490,87,-20.07,146.27,58.58,3.4
577,Gabu,2,CN,1567367491,94,34.78,103.0,35.72,2.64
578,Bat Khela,0,PK,1567367493,72,34.62,71.97,75.5,7.63
579,Zhezkazgan,82,KZ,1567367494,66,47.8,67.71,52.46,6.6
580,El Congo,20,SV,1567367495,48,13.91,-89.5,87.8,8.05
